{
  "ProviderDirectory": [
    {
      "provider_id": "grey_meredith",
      "name": "Grey, Meredith",
      "certification": "MD",
      "specialty": "Primary Care",
      "departments": [
        {
          "name": "Sloan Primary Care",
          "phone": "(710) 555-2070",
          "address": "202 Maple St, Winston-Salem, NC 27101",
          "hours": "M-F 9am-5pm"
        }
      ]
    },
    {
      "provider_id": "house_gregory",
      "name": "House, Gregory",
      "certification": "MD",
      "specialty": "Orthopedics",
      "departments": [
        {
          "name": "PPTH Orthopedics",
          "phone": "(445) 555-6205",
          "address": "101 Pine St, Greensboro, NC 27401",
          "hours": "M-W 9am-5pm"
        },
        {
          "name": "Jefferson Hospital",
          "phone": "(215) 555-6123",
          "address": "202 Maple St, Claremont, NC 28610",
          "hours": "Th-F 9am-5pm"
        }
      ]
    },
    {
      "provider_id": "yang_cristina",
      "name": "Yang, Cristina",
      "certification": "MD",
      "specialty": "Surgery",
      "departments": [
        {
          "name": "Seattle Grace Cardiac Surgery",
          "phone": "(710) 555-3082",
          "address": "456 Elm St, Charlotte, NC 28202",
          "hours": "M-F 9am-5pm"
        }
      ]
    },
    {
      "provider_id": "perry_chris",
      "name": "Perry, Chris",
      "certification": "FNP",
      "specialty": "Primary Care",
      "departments": [
        {
          "name": "Sacred Heart Surgical Department",
          "phone": "(339) 555-7480",
          "address": "123 Main St, Raleigh, NC 27601",
          "hours": "M-W 9am-5pm"
        }
      ]
    },
    {
      "provider_id": "brennan_temperance",
      "name": "Brennan, Temperance",
      "certification": "PhD, MD",
      "specialty": "Orthopedics",
      "departments": [
        {
          "name": "Jefferson Hospital",
          "phone": "(215) 555-6123",
          "address": "202 Maple St, Claremont, NC 28610",
          "hours": "Tu-Th 10am-4pm"
        }
      ]
    }
  ],
  "Appointments": {
    "Times": {
      "rules": [
        "appointments can only be booked within office hours"
      ]
    },
    "Types": {
      "NEW": {
        "duration_minutes": 30,
        "criteria": "patient has not been seen by the provider in the last 5 years"
      },
      "ESTABLISHED": {
        "duration_minutes": 15,
        "criteria": "patient has been seen by the provider in the last 5 years"
      }
    },
    "Arrival": {
      "NEW": "arrive 30 minutes early",
      "ESTABLISHED": "arrive 10 minutes before appointment"
    }
  },
  "AcceptedInsurances": [
    "Medicaid",
    "United Health Care",
    "Blue Cross Blue Shield of North Carolina",
    "Aetna",
    "Cigna"
  ],
  "SelfPay": {
    "Primary Care": 150,
    "Orthopedics": 300,
    "Surgery": 1000
  }
}
